,City,Cloudiness,Country,Date,Humidity,Lat,Lng,Max Temp,Wind Speed
0,Port Alfred,64,ZA,1541746128,91,-33.59,26.89,65.92,2.53
1,Nikolskoye,90,RU,1541743200,86,59.7,30.79,39.2,6.71
2,Airai,0,TL,1541746129,42,-8.93,125.41,86.17,1.68
3,Thompson,5,CA,1541743200,83,55.74,-97.86,-5.81,3.36
4,Hermanus,0,ZA,1541746129,76,-34.42,19.24,58.72,5.03
5,Kapaa,20,US,1541742960,73,22.08,-159.32,77.0,11.41
6,Cape Town,0,ZA,1541743200,49,-33.93,18.42,68.0,14.99
7,Tuktoyaktuk,90,CA,1541743200,85,69.44,-133.03,19.4,9.17
8,Cabedelo,100,BR,1541746130,97,-6.97,-34.84,78.52,13.82
9,Rikitea,88,PF,1541746131,100,-23.12,-134.97,72.36,10.29
10,Ushuaia,90,AR,1541743200,89,-54.81,-68.31,37.4,27.51
11,Byron Bay,64,AU,1541745000,43,-28.65,153.62,71.6,13.87
12,Husavik,32,CA,1541746137,92,50.56,-96.99,18.72,14.16
13,Huarmey,20,PE,1541746137,89,-10.07,-78.15,54.45,3.02
14,Manacapuru,20,BR,1541746138,99,-3.3,-60.62,75.33,2.57
15,Bredasdorp,0,ZA,1541743200,68,-34.53,20.04,68.0,9.17
16,Lasa,20,CY,1541745000,56,34.92,32.53,68.0,5.82
17,Torbay,5,CA,1541743200,80,47.66,-52.73,39.2,28.86
18,Hobart,75,AU,1541745000,42,-42.88,147.33,62.6,4.7
19,Busselton,36,AU,1541746142,66,-33.64,115.35,76.23,9.4
20,Nishihara,75,JP,1541744820,93,35.74,139.53,62.6,2.24
21,San Pedro de Macoris,20,DO,1541743200,94,18.46,-69.3,73.4,4.7
22,Neuquen,0,AR,1541743200,22,-38.95,-68.06,69.8,11.41
23,Yumen,76,CN,1541746143,58,40.29,97.04,37.3,18.68
24,Iqaluit,75,CA,1541743200,79,63.75,-68.52,19.4,8.05
25,Longyearbyen,75,NO,1541744400,97,78.22,15.63,32.0,18.34
26,Santa Ana,20,SV,1541742600,94,13.99,-89.56,73.4,2.19
27,Punta Arenas,75,CL,1541743200,69,-53.16,-70.91,39.2,10.29
28,Cabo San Lucas,5,MX,1541742000,60,22.89,-109.91,71.6,9.91
29,Fairbanks,40,US,1541744280,92,64.84,-147.72,12.02,2.86
30,Fenoarivo,20,MG,1541743200,61,-18.93,47.44,77.0,4.7
31,Ancud,80,CL,1541746147,99,-41.87,-73.83,50.17,2.86
32,Awjilah,0,LY,1541746148,85,29.14,21.3,59.49,4.25
33,Salalah,75,OM,1541742600,66,17.01,54.1,84.2,4.7
34,New Norfolk,75,AU,1541745000,42,-42.78,147.06,62.6,4.7
35,Kodiak,90,US,1541742780,100,39.95,-94.76,30.92,5.82
36,Hithadhoo,64,MV,1541746149,100,-0.6,73.08,82.17,14.94
37,Cidreira,0,BR,1541746149,77,-30.17,-50.22,65.83,13.87
38,Buraydah,75,SA,1541743200,93,26.33,43.97,66.2,9.17
39,Kamyshevatskaya,0,RU,1541746150,100,46.41,37.96,47.02,13.42
40,Deyang,12,CN,1541746150,82,31.12,104.39,57.82,3.8
41,Bangassou,8,CF,1541746151,94,4.74,22.82,73.93,2.86
42,Tiksi,48,RU,1541746151,67,71.64,128.87,-9.28,3.87
43,Nanortalik,44,GL,1541746151,93,60.14,-45.24,29.97,11.14
44,Selma,1,US,1541745300,61,36.57,-119.61,53.06,3.02
45,Kawalu,92,ID,1541746152,90,-7.38,108.21,74.25,2.86
46,Horodyshche,90,UA,1541743200,100,50.76,29.29,28.4,4.47
47,Hami,88,CN,1541746153,88,42.84,93.51,37.57,3.2
48,Vaini,0,IN,1541746153,51,15.34,74.49,86.22,4.25
49,Matara,64,PE,1541746154,100,-13.74,-72.9,42.84,1.57
50,Qaqortoq,20,GL,1541742600,73,60.72,-46.03,23.0,2.75
51,Albany,20,US,1541742840,81,42.65,-73.75,35.96,2.75
52,Mareeba,75,AU,1541745000,48,-16.99,145.42,87.8,14.99
53,Saskylakh,64,RU,1541746159,61,71.97,114.09,-13.15,6.71
54,Yukhnov,76,RU,1541746159,92,54.74,35.23,30.69,2.46
55,Barrow,32,AR,1541746160,45,-38.31,-60.23,75.51,18.57
56,Moron,92,VE,1541746160,96,10.49,-68.2,71.82,2.19
57,Upernavik,0,GL,1541746160,100,72.79,-56.15,18.27,18.57
58,Hilo,90,US,1541743860,93,19.71,-155.08,73.04,5.82
59,Tasiilaq,76,GL,1541742600,69,65.61,-37.64,37.4,20.8
60,Novovasylivka,0,UA,1541746161,87,48.2,37.04,28.26,2.98
61,Chokurdakh,8,RU,1541746162,45,70.62,147.9,-28.09,3.2
62,Palmer,0,AU,1541745000,18,-34.85,139.16,71.6,12.75
63,Bambanglipuro,92,ID,1541746154,97,-7.95,110.28,79.92,4.76
64,Kalmunai,88,LK,1541746163,100,7.42,81.82,77.85,4.88
65,Nome,90,US,1541744400,92,30.04,-94.42,69.08,5.82
66,Kerema,88,PG,1541746164,92,-7.96,145.78,78.25,3.47
67,Fomboni,24,KM,1541746164,100,-12.28,43.74,80.28,17.45
68,Sao Joao da Barra,92,BR,1541746164,100,-21.64,-41.05,71.91,17.78
69,Balkhash,92,KZ,1541746165,100,46.84,74.98,35.19,18.63
70,Mataura,92,NZ,1541746165,90,-46.19,168.86,48.06,4.25
71,Kruisfontein,0,ZA,1541746165,80,-34.0,24.73,63.0,2.01
72,Zhoucheng,0,CN,1541746166,65,31.35,119.33,64.03,4.47
73,Khatanga,56,RU,1541746166,82,71.98,102.47,-18.91,5.48
74,Porterville,0,US,1541742960,70,36.07,-119.02,48.92,5.82
75,Mount Isa,0,AU,1541745000,19,-20.73,139.49,95.0,10.29
76,Tuatapere,80,NZ,1541746168,100,-46.13,167.69,47.02,7.61
77,Den Helder,75,NL,1541745660,93,52.96,4.76,50.0,10.29
78,Arraial do Cabo,92,BR,1541746169,100,-22.97,-42.02,71.05,14.83
79,San Cristobal,75,EC,1541743200,87,-0.39,-78.55,53.6,6.93
80,Ciro Marina,20,IT,1541746170,100,39.37,17.13,66.42,9.51
81,Bluff,12,AU,1541746170,25,-23.58,149.07,87.88,4.81
82,Bethel,90,US,1541742780,96,60.79,-161.76,33.98,13.87
83,Coos Bay,1,US,1541742960,92,43.37,-124.22,42.08,5.82
84,Banfora,88,BF,1541746171,78,10.64,-4.75,71.91,9.73
85,Yulara,0,AU,1541743200,16,-25.24,130.99,86.0,13.87
86,Yellowknife,90,CA,1541743200,85,62.45,-114.38,12.2,17.22
87,Bumba,8,CD,1541746172,93,2.18,22.47,74.97,3.87
88,Pevek,56,RU,1541746172,100,69.7,170.27,7.47,8.57
89,Phangnga,20,TH,1541745000,55,8.45,98.53,91.4,9.17
90,Dunedin,92,NZ,1541746173,100,-45.87,170.5,43.29,3.76
91,Hidalgo,1,US,1541744100,90,26.1,-98.26,78.08,4.7
92,Havre-Saint-Pierre,75,CA,1541743200,80,50.23,-63.6,33.8,8.05
93,Batamshinskiy,90,KZ,1541743200,92,50.56,58.27,26.6,13.42
94,Baiyin,0,CN,1541743200,34,36.55,104.13,48.2,4.47
95,Avarua,75,CK,1541743200,78,-21.21,-159.78,77.0,11.41
96,La Rochelle,0,FR,1541745000,93,46.16,-1.15,53.6,4.7
97,Salina,90,US,1541744100,93,36.29,-95.15,37.94,6.93
98,East London,0,ZA,1541743200,60,-33.02,27.91,68.0,3.36
99,Dawlatabad,76,AF,1541746178,87,36.41,64.91,44.28,3.87
100,Champerico,0,MX,1541746178,93,16.38,-93.6,61.38,1.68
101,Sao Filipe,76,CV,1541746178,94,14.9,-24.5,78.48,17.11
102,Port Hardy,90,CA,1541743200,87,50.7,-127.42,44.6,16.11
103,Aloleng,0,PH,1541746179,88,16.13,119.78,84.78,6.82
104,Shenjiamen,0,CN,1541746179,100,29.96,122.3,60.7,10.07
105,Mar del Plata,56,AR,1541746181,96,-46.43,-67.52,46.89,8.23
106,Luderitz,0,NA,1541743200,55,-26.65,15.16,64.4,3.36
107,Puerto Ayora,68,EC,1541746181,100,-0.74,-90.35,72.27,8.05
108,Sisimiut,0,GL,1541746182,100,66.94,-53.67,-10.18,1.45
109,Buritis,92,BR,1541746182,99,-15.62,-46.42,66.82,9.24
110,Slavuta,0,UA,1541743200,100,50.3,26.87,28.4,7.0
111,Darovskoy,20,RU,1541746185,81,58.77,47.96,13.86,6.78
112,Bilibino,80,RU,1541746185,80,68.06,166.44,-5.32,2.19
113,Ponta do Sol,100,BR,1541746185,97,-20.63,-46.0,60.57,12.37
114,Pisco,90,PE,1541743200,88,-13.71,-76.2,64.4,5.82
115,Nivala,92,FI,1541746186,99,63.93,24.96,41.13,3.76
116,Cukai,75,MY,1541743200,83,4.25,103.42,87.8,4.7
117,Svetlogorsk,90,RU,1541743200,67,53.14,59.15,17.6,8.95
118,Esperance,20,TT,1541743200,94,10.24,-61.45,78.8,4.99
119,Ankara,40,TR,1541742600,87,39.92,32.85,44.6,2.24
120,Butaritari,56,KI,1541746191,100,3.07,172.79,83.47,15.32
121,Ilulissat,12,GL,1541742600,72,69.22,-51.1,15.8,4.54
122,Shitanjing,0,CN,1541746191,29,39.23,106.34,44.23,3.53
123,Tura,0,IN,1541746192,71,25.52,90.21,78.12,6.38
124,Nouadhibou,32,MR,1541743200,64,20.93,-17.03,68.0,18.34
125,Xuddur,0,SO,1541746192,67,4.12,43.89,80.23,10.07
126,Lufilufi,75,WS,1541743200,83,-13.87,-171.6,82.4,12.75
127,Pingdu,0,CN,1541743200,48,36.79,119.95,62.6,6.71
128,San Quintin,20,PH,1541743200,36,17.54,120.52,93.2,4.7
129,Oranjemund,0,ZA,1541746195,93,-28.55,16.43,58.95,10.25
130,Port Elizabeth,1,US,1541742960,62,39.31,-74.98,46.76,14.99
131,Alofi,92,NU,1541743200,94,-19.06,-169.92,75.2,5.82
132,Portree,80,GB,1541746198,98,57.41,-6.19,49.63,21.92
133,Beaverlodge,75,CA,1541743200,85,55.21,-119.43,10.4,9.62
134,Lebu,20,ET,1541746199,69,8.96,38.73,62.37,3.98
135,Klaksvik,88,FO,1541744400,93,62.23,-6.59,46.4,18.34
136,Avera,90,US,1541745300,97,33.19,-82.53,64.4,4.7
137,Lucea,20,JM,1541743200,83,18.44,-78.17,78.8,4.7
138,Gavle,36,SE,1541746201,100,60.67,17.14,39.1,3.24
139,Am Timan,0,TD,1541746201,34,11.04,20.28,65.07,6.33
140,Chuy,0,UY,1541746202,81,-33.69,-53.46,66.6,18.34
141,Pontes e Lacerda,56,BR,1541746202,95,-15.23,-59.33,72.22,3.24
142,Svetlaya,92,RU,1541746202,100,46.54,138.33,48.06,21.09
143,Rome,0,IT,1541742900,87,41.89,12.48,53.6,3.36
144,Atuona,56,PF,1541746203,100,-9.8,-139.03,77.49,6.71
145,Qaanaaq,44,GL,1541746203,100,77.48,-69.36,-2.93,7.38
146,Outjo,0,NA,1541743200,10,-20.11,16.16,80.6,4.7
147,Katsuura,75,JP,1541743200,93,33.93,134.5,62.6,11.41
148,Katherine,40,AU,1541745000,23,-14.47,132.26,104.0,9.17
149,Hamilton,75,BM,1541742900,83,32.3,-64.78,75.2,12.75
150,Newport,75,GB,1541744400,100,51.59,-3.0,50.0,11.41
151,Margate,75,AU,1541745000,42,-43.03,147.26,62.6,4.7
152,Saint-Denis,0,FR,1541745000,93,48.94,2.36,44.6,4.7
153,Idlib,40,SY,1541743980,100,35.93,36.64,50.0,3.8
154,Maniitsoq,0,GL,1541746209,100,65.42,-52.9,14.53,7.34
155,Palu,64,ID,1541746209,96,-0.9,119.87,71.91,1.79
156,Igrim,8,RU,1541746211,79,63.19,64.42,9.09,6.71
157,Dedougou,12,BF,1541746211,55,12.47,-3.47,65.7,3.58
158,Coquimbo,0,CL,1541743200,93,-29.95,-71.34,53.6,4.7
159,Dudinka,20,RU,1541746212,74,69.41,86.18,-17.2,22.15
160,Findlay,90,US,1541742780,69,41.04,-83.65,37.94,8.05
161,Sitka,0,US,1541746214,87,37.17,-99.65,24.21,5.03
162,Vagur,48,FO,1541746214,93,61.47,-6.81,49.14,23.33
163,Barra da Estiva,88,BR,1541746215,99,-13.63,-41.33,66.96,3.09
164,San Juan de los Lagos,5,MX,1541742060,62,21.25,-102.33,57.2,4.7
165,Dzhebariki-Khaya,0,RU,1541746215,69,62.22,135.8,-5.23,3.47
166,Marienburg,40,DE,1541744400,93,52.12,9.98,51.8,8.05
167,Zitlala,32,MX,1541746216,100,17.69,-99.19,58.86,1.45
168,Assiniboia,32,CA,1541746217,83,49.63,-105.99,2.07,3.58
169,Castro,36,CL,1541746219,95,-42.48,-73.76,48.55,3.31
170,Norman Wells,40,CA,1541743200,84,65.28,-126.83,3.2,2.24
171,Hun,20,BE,1541744700,87,50.34,4.87,46.4,2.24
172,Leningradskiy,76,RU,1541746220,96,69.38,178.42,21.37,17.29
173,Bemidji,90,US,1541745300,85,47.48,-94.89,13.1,8.05
174,Clyde River,90,CA,1541743920,83,70.47,-68.59,-11.21,2.24
175,Petropavlovsk-Kamchatskiy,0,RU,1541743200,43,53.05,158.65,33.8,17.9
176,Hopelchen,5,MX,1541742300,94,19.77,-89.85,75.2,3.69
177,Barcelos,40,PT,1541743200,93,41.53,-8.62,50.0,8.05
178,Kathu,0,ZA,1541746222,21,-27.7,23.05,72.0,5.99
179,Atambua,8,ID,1541746222,74,-9.11,124.89,88.65,3.69
180,Carnarvon,0,ZA,1541746223,21,-30.97,22.13,63.58,8.5
181,Vostok,92,RU,1541746223,96,46.45,135.83,47.16,12.64
182,Georgetown,20,GY,1541746224,91,6.8,-58.16,76.5,5.48
183,Harper,90,US,1541744100,93,30.3,-99.24,56.3,11.41
184,Komsomolskiy,0,RU,1541746226,53,67.55,63.78,-10.36,6.11
185,Bandarbeyla,68,SO,1541746226,100,9.49,50.81,79.2,10.02
186,Meulaboh,92,ID,1541746226,100,4.14,96.13,77.13,10.4
187,Kalaleh,76,IR,1541746227,79,37.38,55.49,52.15,3.98
188,Pernem,0,IN,1541746227,72,15.72,73.8,91.89,5.55
189,Yar-Sale,8,RU,1541746227,84,66.83,70.83,0.81,18.19
190,Floro,20,NO,1541744400,66,61.6,5.03,51.8,14.99
191,Urucara,8,BR,1541746229,95,-2.54,-57.76,76.23,2.35
192,Lugovoy,48,RU,1541746231,76,59.72,65.88,11.88,11.25
193,Geraldton,75,CA,1541743200,85,49.72,-86.95,10.4,4.7
194,Mehamn,20,NO,1541742600,84,71.03,27.85,37.4,5.82
195,Severo-Kurilsk,36,RU,1541746232,94,50.68,156.12,40.05,13.38
196,Bereda,0,ES,1541745000,87,43.27,-7.54,50.0,9.17
197,Dikson,48,RU,1541746233,100,73.51,80.55,14.98,27.13
198,Alice Springs,0,AU,1541745000,30,-23.7,133.88,80.6,9.17
199,Camacha,20,PT,1541743200,77,33.08,-16.33,62.6,2.24
200,Mackenzie,90,CA,1541743500,92,55.34,-123.09,26.6,8.05
201,Jamestown,0,AU,1541746235,28,-33.21,138.6,71.1,11.07
202,Bulawayo,0,ZW,1541746235,69,-20.16,28.59,58.95,9.24
203,Lithgow,92,AU,1541745000,46,-33.48,150.16,71.6,14.99
204,Diu,0,IN,1541746236,22,20.71,70.98,93.1,5.37
205,Burgos,75,ES,1541745000,93,42.34,-3.7,41.0,6.93
206,Maraa,92,BR,1541746237,100,-1.83,-65.37,72.67,6.26
207,Ambovombe,64,MG,1541746237,76,-25.18,46.09,71.91,11.41
208,Konevo,20,BG,1541746237,99,41.67,25.61,39.15,2.98
209,Cap Malheureux,40,MU,1541743200,65,-19.98,57.61,82.4,12.75
210,Prado,92,BR,1541746238,100,-17.34,-39.22,74.79,16.62
211,Sosva,0,RU,1541746238,67,59.17,61.86,14.8,5.77
212,Los Andes,0,CL,1541743200,64,-32.83,-70.6,59.0,8.05
213,Iracoubo,24,GF,1541746239,82,5.48,-53.21,79.38,4.99
214,Yanji,32,CN,1541746240,79,42.89,129.5,42.75,10.4
215,Pitimbu,100,BR,1541746240,97,-7.47,-34.81,78.52,13.82
216,Crisan,75,RO,1541743200,81,44.97,29.47,48.2,6.93
217,Faanui,76,PF,1541746241,100,-16.48,-151.75,81.36,21.59
218,Khash,0,IR,1541746241,28,28.22,61.21,67.41,4.09
219,Pandan,76,PH,1541746241,97,11.72,122.09,83.88,20.09
220,Halifax,5,CA,1541743200,100,44.65,-63.58,39.2,10.29
221,Isiro,64,CD,1541746242,96,2.77,27.62,69.88,3.09
222,Williams Lake,90,CA,1541743200,86,52.13,-122.14,28.4,5.82
223,Mahebourg,40,MU,1541743200,65,-20.41,57.7,82.4,12.75
224,College,40,US,1541744280,92,64.86,-147.8,12.02,2.86
225,Chernyshevskiy,88,RU,1541746244,89,63.01,112.47,21.15,7.78
226,Faya,0,SA,1541743200,52,18.39,42.45,69.8,10.29
227,Ambilobe,24,MG,1541746245,58,-13.19,49.05,86.62,4.09
228,Saint Anthony,1,US,1541742960,62,43.97,-111.68,26.96,10.29
229,Oruro,32,BO,1541746246,100,-17.97,-67.11,37.17,4.7
230,Hofn,92,IS,1541746246,96,64.25,-15.21,44.64,22.21
231,Labuhan,44,ID,1541746246,88,-2.54,115.51,81.09,2.98
232,Spornoye,90,RU,1541743200,90,50.84,37.29,32.0,2.24
233,Pangnirtung,0,CA,1541746247,100,66.15,-65.72,8.1,3.47
234,Beyneu,20,KZ,1541746250,72,45.32,55.19,35.91,4.47
235,Karratha,76,AU,1541746250,23,-20.74,116.85,99.63,5.82
236,Carauari,56,BR,1541746250,98,-4.88,-66.9,75.96,2.46
237,Verkhnyaya Sinyachikha,20,RU,1541746251,66,57.98,61.67,12.87,5.03
238,Usinsk,64,RU,1541746251,89,66.0,57.56,10.12,5.03
239,Khandyga,0,RU,1541746251,69,62.65,135.58,-5.23,3.47
240,Hualmay,36,PE,1541746252,96,-11.1,-77.61,55.71,2.75
241,Coahuayana,0,MX,1541746252,84,18.62,-100.35,63.27,1.01
242,Athabasca,0,CA,1541746144,77,54.72,-113.29,1.17,13.15
243,Penticton,40,CA,1541743200,92,49.49,-119.59,28.4,3.36
244,Palmerston,90,CA,1541743200,80,43.83,-80.85,33.8,4.7
245,Poum,8,MK,1541746253,88,41.28,20.71,29.97,1.07
246,San Patricio,0,PY,1541746253,71,-26.98,-56.83,71.95,4.7
247,La Ronge,20,CA,1541743200,83,55.1,-105.3,-7.61,5.37
248,Basay,68,PH,1541746254,93,9.41,122.64,84.33,7.78
249,Kavaratti,0,IN,1541746255,100,10.57,72.64,85.23,4.32
250,Poronaysk,92,RU,1541746255,99,49.22,143.1,38.61,4.59
251,Rio Grande,0,BR,1541746255,79,-32.03,-52.1,68.85,22.37
252,Hasaki,75,JP,1541744040,100,35.73,140.83,62.6,4.7
253,Vardo,1,US,1541745600,86,39.62,-77.74,44.6,4.7
254,Dalvik,90,SE,1541744400,100,57.79,14.13,44.6,2.24
255,Vilhena,44,BR,1541746255,98,-12.74,-60.15,69.93,1.86
256,Belaya Kholunitsa,64,RU,1541746257,76,58.84,50.85,13.63,3.36
257,General Roca,0,AR,1541743200,22,-39.03,-67.58,69.8,11.41
258,Haines Junction,44,CA,1541746257,93,60.75,-137.51,7.74,2.24
259,Ginda,12,IN,1541746258,68,30.69,78.49,56.2,1.97
260,Santiago del Estero,0,AR,1541746258,61,-27.8,-64.26,79.56,15.17
261,Pishin,56,PK,1541746258,35,30.58,67.0,60.07,2.46
262,Belyy Yar,0,RU,1541743200,45,53.6,91.39,42.8,26.84
263,Arlit,0,NE,1541746259,28,18.74,7.39,56.34,2.75
264,Aquiraz,40,BR,1541743200,74,-3.9,-38.39,80.6,14.99
265,Flinders,20,AU,1541743200,49,-34.58,150.85,69.8,19.46
266,Banjar,68,ID,1541746260,85,-7.37,108.54,79.74,3.58
267,Provideniya,90,RU,1541741400,100,64.42,-173.23,35.6,22.37
268,Cherskiy,56,RU,1541746261,85,68.75,161.3,-9.37,1.01
269,Lata,12,IN,1541746262,68,30.78,78.62,56.2,1.97
270,Aksu,75,KZ,1541743200,85,52.04,76.93,15.8,15.66
271,Mount Gambier,80,AU,1541745970,71,-37.83,140.78,59.85,9.06
272,Dongkan,0,CN,1541746265,82,34.0,119.83,61.65,8.34
273,Hlinsko,90,CZ,1541743200,100,49.76,15.91,46.4,5.26
274,Fuerte Olimpo,12,BR,1541746266,80,-21.04,-57.87,74.02,11.14
275,Nosy Varika,12,MG,1541746266,84,-20.58,48.53,79.78,5.21
276,Nanning,0,CN,1541743200,56,22.83,108.3,73.4,4.47
277,Chingirlau,12,KZ,1541746267,88,51.09,54.08,33.43,6.33
278,Illela,0,NG,1541746267,36,12.25,4.3,64.93,8.9
279,Ondjiva,0,AO,1541746267,22,-17.07,15.73,71.95,8.61
280,Selikhino,88,RU,1541746267,69,50.37,137.51,35.73,5.59
281,Ewa Beach,1,US,1541743440,76,21.32,-158.01,78.98,5.82
282,Enfield,75,GB,1541744400,93,51.65,-0.08,50.0,9.17
283,Baykit,80,RU,1541746268,86,61.68,96.39,24.7,10.25
284,Almaznyy,24,RU,1541746269,81,48.03,40.04,29.92,2.86
285,Araouane,32,ML,1541746269,24,18.9,-3.53,68.85,9.4
286,Olga,90,US,1541744820,5,34.11,-118.17,73.04,18.34
287,Krasnokamensk,76,RU,1541746269,67,50.1,118.04,24.66,8.01
288,Heihe,75,RU,1541743200,86,50.24,127.51,26.6,11.18
289,Macheng,0,CN,1541746271,56,31.18,115.03,63.67,3.8
290,San Antonio,0,CL,1541743200,100,-33.58,-71.61,50.0,4.7
291,Amapa,75,HN,1541743200,83,15.09,-87.97,78.8,4.7
292,Zarya,12,RU,1541746273,96,45.67,39.64,35.46,6.78
293,Itarema,80,BR,1541746274,86,-2.92,-39.92,77.13,12.37
294,Sao Gabriel da Cachoeira,92,BR,1541746274,100,-0.13,-67.09,73.93,1.01
295,Broken Hill,44,AU,1541746275,36,-31.97,141.45,73.12,7.56
296,Saint-Philippe,1,CA,1541744100,74,45.36,-73.48,37.4,3.36
297,Port Macquarie,20,AU,1541743200,56,-31.43,152.91,68.0,13.87
298,Kavieng,20,PG,1541746276,100,-2.57,150.8,83.52,10.29
299,Zhigansk,76,RU,1541746279,68,66.77,123.37,7.78,15.39
300,Bathsheba,40,BB,1541743200,94,13.22,-59.52,78.8,14.99
301,Raudeberg,20,NO,1541744400,66,61.99,5.14,51.8,14.99
302,Iquique,90,CL,1541743200,68,-20.22,-70.14,66.2,3.36
303,Belmonte,32,PT,1541746280,99,40.36,-7.35,37.08,2.75
304,Coihaique,90,CL,1541743200,93,-45.58,-72.07,50.0,3.69
305,Pozo Colorado,12,PY,1541746281,64,-23.49,-58.8,76.86,9.8
306,Stillwater,90,US,1541744100,94,36.12,-97.06,37.94,10.29
307,Mayumba,92,GA,1541746282,100,-3.44,10.65,77.94,4.54
308,Wenling,24,CN,1541746276,90,28.38,121.38,65.02,7.34
309,Tianpeng,12,CN,1541746282,91,28.88,112.34,62.77,5.7
310,Srednekolymsk,88,RU,1541746283,77,67.46,153.71,-7.21,4.54
311,Kapit,44,MY,1541746283,70,2.02,112.94,86.49,2.35
312,Beringovskiy,76,RU,1541746283,99,63.05,179.32,36.81,10.85
313,Natal,40,BR,1541743200,74,-5.81,-35.21,78.8,8.05
314,Grand Gaube,40,MU,1541743200,65,-20.01,57.66,82.4,12.75
315,Montepuez,24,MZ,1541746284,99,-13.13,39.0,71.1,14.16
316,Gorom-Gorom,12,BF,1541746284,46,14.45,-0.24,63.99,5.32
317,Kieta,88,PG,1541746285,100,-6.22,155.63,77.35,4.81
318,Limon,1,US,1541742900,91,39.26,-103.69,15.98,4.47
319,Kaitangata,88,NZ,1541746285,97,-46.28,169.85,46.17,4.7
320,Tucuman,0,PE,1541746042,72,-17.17,-70.89,51.93,1.74
321,Deputatskiy,12,RU,1541746286,0,69.3,139.9,-34.97,2.8
322,Bud,0,NO,1541744400,86,62.91,6.91,48.2,6.93
323,Fortuna,20,ES,1541745000,54,38.18,-1.13,55.4,17.22
324,Salinopolis,100,BR,1541746287,97,-0.61,-47.36,81.27,15.55
325,Merrill,1,US,1541742780,37,42.03,-121.6,30.92,5.82
326,Mandalgovi,0,MN,1541746288,68,45.76,106.27,32.94,6.55
327,Rudnya,88,RU,1541746288,95,50.8,44.56,34.11,4.36
328,Taoudenni,0,ML,1541746288,42,22.68,-3.98,60.03,7.72
329,Jonkoping,90,SE,1541744400,100,57.78,14.16,44.6,2.24
330,Linxia,32,CN,1541746289,66,35.6,103.21,41.04,3.24
331,Kudahuvadhoo,80,MV,1541746289,100,2.67,72.89,83.02,14.16
332,Rafsanjan,8,IR,1541746290,75,30.4,55.99,56.7,3.2
333,Ribeira Grande,92,PT,1541746291,92,38.52,-28.7,69.57,29.86
334,Leiyang,0,CN,1541746291,94,26.42,112.85,62.1,4.03
335,Kosa,68,RU,1541746292,86,59.94,54.99,12.51,4.81
336,Rio Gallegos,0,AR,1541743200,100,-51.62,-69.22,37.4,13.87
337,Sangar,68,RU,1541746293,61,63.92,127.47,4.5,13.53
338,Pangody,20,RU,1541746294,63,65.85,74.49,-13.55,16.11
339,Mitsamiouli,20,KM,1541743200,74,-11.38,43.28,84.2,19.46
340,Aklavik,90,CA,1541743200,84,68.22,-135.01,6.8,3.36
341,Ajdabiya,32,LY,1541746295,92,30.75,20.22,57.82,2.98
342,Sola,0,NO,1541744400,81,58.89,5.65,48.2,8.05
343,Saldanha,92,PT,1541746296,93,41.42,-6.55,40.9,4.99
344,Saint George,75,GR,1541744400,87,39.45,22.34,55.4,4.7
345,Mozelos,40,PT,1541743200,93,41.0,-8.56,50.0,6.93
346,Sao Miguel do Iguacu,0,BR,1541743200,77,-25.35,-54.24,68.0,4.7
347,Devils Lake,90,US,1541746140,85,48.11,-98.87,12.2,14.99
348,Baruun-Urt,0,MN,1541746299,44,46.68,113.28,33.03,13.82
349,Bealanana,12,MG,1541746299,51,-14.54,48.75,79.29,2.24
350,Komatipoort,0,MZ,1541746300,78,-25.43,31.96,66.96,5.55
351,Sarahan,36,IN,1541746300,93,31.51,77.79,15.3,0.67
352,San Jose,0,PH,1541746301,60,15.79,120.99,85.0,7.11
353,Narsaq,20,GL,1541742600,73,60.91,-46.05,23.0,4.09
354,Codrington,44,AU,1541746303,64,-28.95,153.24,67.9,4.88
355,Nioro,0,GM,1541746303,53,13.79,-15.05,72.22,7.56
356,Haverfordwest,64,GB,1541742600,93,51.8,-4.97,51.8,13.87
357,Tabou,0,CI,1541746056,100,4.42,-7.36,80.77,0.0
358,Whitehorse,75,CA,1541743200,92,60.72,-135.06,28.4,9.17
359,Sambava,76,MG,1541746304,100,-14.27,50.17,78.84,15.05
360,San Juan,0,AR,1541746306,72,-31.54,-68.53,66.78,4.7
361,Opuwo,0,NA,1541746306,33,-18.06,13.84,66.15,5.03
362,Souillac,0,FR,1541745000,93,45.6,-0.6,51.8,2.24
363,Cuiluan,92,CN,1541746307,89,47.72,128.65,33.52,7.56
364,Port-Cartier,75,CA,1541743200,74,50.03,-66.88,35.6,10.29
365,Mitu,8,IR,1541746309,96,36.2,46.09,38.83,2.3
366,Yakeshi,88,CN,1541746310,64,49.28,120.73,29.16,6.04
367,Verkhoshizhemye,20,RU,1541746310,73,58.01,49.1,12.69,8.12
368,La Asuncion,64,EC,1541746311,99,-1.64,-78.74,42.25,0.85
369,Ugoofaaru,80,MV,1541746311,100,5.67,73.0,84.06,6.6
370,Bosaso,0,SO,1541743200,88,11.28,49.18,78.8,6.93
371,Nyurba,24,RU,1541746312,80,63.29,118.35,20.61,5.32
372,Zhongshu,0,CN,1541746313,70,24.52,103.77,64.89,10.07
373,Victoria,75,BN,1541745000,70,5.28,115.24,89.6,6.93
374,Jacmel,36,HT,1541746314,100,18.24,-72.54,81.18,2.46
375,Shelburne,90,CA,1541743200,80,44.08,-80.2,37.4,2.24
376,Nha Trang,80,VN,1541746316,100,12.24,109.19,75.87,8.9
377,Ronneby,75,SE,1541744400,100,56.21,15.28,44.6,2.68
378,Geeste,75,DE,1541744400,93,52.6,7.27,48.2,5.82
379,Shimoda,75,JP,1541744520,93,34.7,138.93,66.2,9.17
380,Cervo,92,BR,1541746317,96,-22.19,-46.24,58.23,12.03
381,Khandbari,76,NP,1541746317,73,27.38,87.21,38.79,0.96
382,Todos Santos,5,MX,1541742000,60,23.45,-110.23,71.6,5.82
383,Neyshabur,88,IR,1541746319,74,36.21,58.79,47.47,2.98
384,Constitucion,0,MX,1541746319,63,23.99,-104.67,48.6,5.99
385,Genhe,76,CN,1541746320,71,50.78,121.52,26.91,4.54
386,Talnakh,0,RU,1541746320,34,69.49,88.39,-23.45,8.72
387,Lukovetskiy,90,RU,1541743200,100,64.29,41.92,30.2,6.71
388,Aykhal,8,RU,1541746320,70,65.95,111.51,2.92,5.88
389,Imbituba,75,BR,1541743200,82,-28.24,-48.67,68.0,8.05
390,Vao,92,EE,1541746321,100,59.1,26.19,40.32,4.81
391,Vanimo,8,PG,1541746322,100,-2.67,141.3,84.1,10.25
392,North Bend,1,US,1541742960,92,43.41,-124.22,42.08,5.82
393,Nalut,0,LY,1541746322,75,31.86,10.98,39.69,2.57
394,The Valley,20,AI,1541743200,83,18.22,-63.06,78.8,6.93
395,Touros,80,BR,1541746323,92,-5.2,-35.46,77.94,13.87
396,Lahij,24,YE,1541746323,75,13.06,44.88,76.59,4.99
397,Willow Grove,1,US,1541744100,100,40.14,-75.12,44.06,6.78
398,Plainview,90,US,1541744100,84,34.18,-101.71,39.92,12.75
399,Strezhevoy,40,RU,1541743200,76,60.73,77.6,-4.01,11.18
400,Kijang,20,KR,1541743200,45,35.24,129.21,62.6,13.87
401,Niteroi,0,BR,1541743200,82,-29.95,-51.16,62.6,8.05
402,Laylay,32,PH,1541746326,99,13.44,121.82,82.71,15.39
403,Hammond,90,US,1541745900,100,30.5,-90.46,69.98,3.58
404,Maryborough,64,AU,1541746326,64,-25.54,152.7,71.19,6.11
405,Dwarka,0,IN,1541745000,44,28.58,77.04,80.6,4.7
406,Kidal,0,ML,1541746327,38,18.44,1.41,58.27,4.76
407,Puerto Carreno,20,CO,1541746327,92,6.19,-67.49,70.29,2.98
408,Maracai,88,BR,1541746328,81,-22.61,-50.67,66.06,18.41
409,Rivers,75,CA,1541743200,77,50.03,-100.23,3.2,8.05
410,Iskateley,0,RU,1541746328,61,67.68,53.15,7.78,9.73
411,Saint-Alexandre,0,FR,1541745000,67,44.23,4.62,60.8,16.11
412,Mago,8,RU,1541746329,67,53.27,140.15,32.13,7.05
413,Kholmsk,75,RU,1541743200,93,47.05,142.05,44.6,6.71
414,Ariquemes,36,BR,1541746330,97,-9.91,-63.03,73.75,2.08
415,Tecoman,76,MX,1541746330,97,18.91,-103.87,69.39,0.74
416,Sao Marcos,0,BR,1541746331,84,-28.97,-51.07,57.28,9.84
417,Bonthe,44,SL,1541746331,100,7.53,-12.5,75.73,1.57
418,Okhotsk,0,RU,1541746331,100,59.36,143.24,4.72,5.99
419,Padang,92,ID,1541746332,100,-0.92,100.36,76.18,19.19
420,Gigmoto,56,PH,1541746334,99,13.78,124.39,81.67,12.59
421,Bokovskaya,88,RU,1541746334,98,49.23,41.83,34.83,4.36
422,Banda Aceh,88,ID,1541746335,99,5.56,95.32,78.07,2.8
423,Qingdao,0,CN,1541743200,48,36.09,120.35,62.6,6.71
424,Mahanoro,8,MG,1541746335,73,-19.9,48.8,79.47,3.76
425,Tautira,20,PF,1541745000,69,-17.73,-149.15,80.6,3.36
426,Naze,75,NG,1541743200,94,5.43,7.07,77.0,2.98
427,Saint-Georges,56,CA,1541746339,80,46.12,-70.67,35.23,5.82
428,Hervey Bay,8,AU,1541746325,91,-25.3,152.85,74.83,16.17
429,Nassau,56,DE,1541744400,93,51.17,13.51,46.4,4.7
430,Morunglav,0,RO,1541745000,86,44.46,24.11,39.2,2.24
431,Jatai,0,IN,1541746342,45,28.97,76.18,81.13,4.47
432,Viedma,20,AR,1541746343,36,-40.81,-62.99,64.53,5.82
433,Wageningen,90,NL,1541744700,93,51.98,5.66,46.4,5.82
434,Westport,75,IE,1541745000,93,53.8,-9.52,42.8,19.46
435,Portsmouth,20,GB,1541744400,81,50.8,-1.08,53.6,4.7
436,Lorengau,48,PG,1541746344,100,-2.02,147.27,82.48,4.21
437,Nautla,0,MX,1541746345,99,20.22,-96.78,81.13,12.86
438,Ilhabela,92,BR,1541746250,100,-23.78,-45.36,69.57,18.68
439,Kimberley,0,ZA,1541744340,21,-28.74,24.76,71.6,3.36
440,Baculin,48,PH,1541746345,77,7.45,126.58,84.6,14.09
441,Aksarka,44,RU,1541746346,81,66.56,67.8,8.46,16.11
442,Minsk,90,BY,1541743200,69,53.9,27.56,32.0,5.82
443,Soloneshnoye,80,RU,1541746346,63,51.65,84.32,32.04,9.8
444,Juneau,90,US,1541742960,95,58.3,-134.42,42.08,11.41
445,Hede,68,SE,1541744400,100,60.45,15.49,39.2,2.24
446,Lieksa,92,FI,1541746347,97,63.32,30.02,37.17,3.69
447,Port Huron,75,US,1541745300,100,42.98,-82.44,38.12,8.79
448,Gat,0,SN,1541743200,73,14.69,-16.54,69.8,10.25
449,Sibolga,64,ID,1541746349,92,1.74,98.78,75.87,2.46
450,Southampton,20,GB,1541744400,81,50.9,-1.4,53.6,4.7
451,Pires do Rio,92,BR,1541746350,98,-17.3,-48.28,65.47,8.84
452,Belaya Gora,0,RU,1541746350,50,68.54,146.19,-30.07,2.86
453,West Wendover,1,US,1541742960,57,40.74,-114.07,28.04,3.24
454,Trinidad,0,UY,1541746351,60,-33.52,-56.9,69.93,12.86
455,Mikhaylovskoye,0,RU,1541746352,72,43.1,44.64,39.06,3.2
456,Ornskoldsvik,90,SE,1541744400,100,63.29,18.72,41.0,2.75
457,Broome,0,GB,1541744400,100,52.47,1.45,44.6,9.17
458,Mount Darwin,0,ZW,1541746353,59,-16.77,31.58,68.4,7.05
459,Berlevag,40,NO,1541742600,86,70.86,29.09,32.0,9.17
460,Kuzovatovo,68,RU,1541746353,94,53.54,47.69,32.22,7.34
461,Santa Maria,0,BR,1541746354,64,-29.69,-53.81,67.18,13.94
462,Timbuktu,0,ML,1541746355,28,16.77,-3.01,68.4,9.73
463,Ust-Omchug,0,RU,1541746355,35,61.13,149.63,-25.07,2.53
464,Coffs Harbour,40,AU,1541745000,52,-30.3,153.13,69.8,8.05
465,High Prairie,32,CA,1541746356,76,55.43,-116.48,16.42,8.5
466,Aketi,20,CD,1541746356,93,2.74,23.78,74.25,3.09
467,Kanker,0,IN,1541746356,52,20.27,81.49,85.27,4.47
468,Anadyr,20,RU,1541743200,86,64.73,177.51,30.2,35.79
469,San Policarpo,80,PH,1541746357,95,12.18,125.51,81.45,14.27
470,Kushima,20,JP,1541743200,57,31.5,131.29,75.2,14.99
471,Namibe,0,AO,1541746358,100,-15.19,12.15,70.6,1.68
472,Birao,0,CF,1541746358,42,10.3,22.78,63.0,11.63
473,Caravelas,76,BR,1541746359,100,-17.73,-39.27,76.23,16.44
474,Salamiyah,36,SY,1541746360,91,35.01,37.05,51.3,5.59
475,Zhuhai,0,CN,1541743200,20,40.71,112.04,44.6,6.71
476,Sungaipenuh,56,ID,1541746361,87,-2.08,101.38,75.6,0.96
477,Verkhoyansk,44,RU,1541746361,47,67.55,133.39,-29.44,2.8
478,Sevierville,90,US,1541742780,96,35.87,-83.56,51.98,2.98
479,Nunoa,24,PE,1541746362,95,-14.48,-70.64,28.44,3.87
480,Dryden,90,CA,1541744880,92,49.79,-92.84,14.0,6.93
481,Muisne,56,EC,1541746362,98,0.61,-80.02,70.92,2.57
482,Wick,75,GB,1541744400,100,51.45,-2.43,50.0,11.41
483,Volgorechensk,80,RU,1541746363,90,57.44,41.16,30.78,6.55
484,Zhangye,0,CN,1541746363,73,38.94,100.46,36.45,15.88
485,Brzeg Dolny,90,PL,1541745000,93,51.27,16.72,42.8,2.24
486,Ayr,75,GB,1541744400,87,55.46,-4.63,50.0,12.75
487,Hohhot,0,CN,1541743200,20,40.81,111.65,44.6,6.71
488,Sao Joaquim,36,BR,1541746366,91,-28.29,-49.93,53.68,8.12
489,Gotsu,75,JP,1541743200,63,35.01,132.22,64.4,11.41
490,Monroe,40,US,1541745720,71,41.91,-83.4,37.94,4.7
491,Ocean City,40,US,1541744640,100,30.44,-86.61,73.94,5.21
492,Yurla,20,RU,1541746367,71,59.33,54.32,11.2,5.88
493,Manokwari,44,ID,1541746367,100,-0.87,134.08,82.35,5.37
494,Sampit,8,ID,1541746367,72,-2.54,112.95,91.35,4.47
495,Canton,75,US,1541744220,72,40.8,-81.38,39.02,9.17
496,Xining,32,CN,1541746368,57,36.62,101.77,40.18,2.86
497,La Romana,40,DO,1541743200,94,18.43,-68.97,78.8,6.93
498,Cayenne,44,GF,1541745000,94,4.94,-52.33,75.2,2.24
499,Palauig,0,PH,1541746369,65,15.44,119.9,88.11,6.78
500,Seshcha,88,RU,1541746369,98,53.73,33.34,32.08,3.8
501,Bagdarin,0,RU,1541746370,58,54.44,113.59,12.42,3.36
502,Kitimat,90,CA,1541743200,100,54.02,-128.69,33.8,2.24
503,Moncao,40,PT,1541745000,100,42.08,-8.48,44.6,10.29
504,Gualeguay,20,AR,1541746371,63,-33.15,-59.31,75.24,10.92
505,Angoche,76,MZ,1541746373,100,-16.23,39.91,78.07,21.54
506,Shu,8,KZ,1541746373,71,43.6,73.76,46.08,6.6
507,Ostrovnoy,0,RU,1541746374,80,68.05,39.51,12.28,2.8
508,Emerald,20,AU,1541746374,25,-23.53,148.16,86.62,4.36
509,Vila Velha,40,BR,1541743200,74,-3.71,-38.6,80.6,14.99
510,Sirjan,20,IR,1541746375,92,29.44,55.67,56.07,4.36
511,Xingyi,0,CN,1541746375,72,24.19,102.82,65.07,5.82
512,Marzuq,0,YE,1541746376,59,14.4,46.47,69.97,3.69
513,Bartica,8,GY,1541746376,94,6.41,-58.62,75.42,2.57
514,Suntar,44,RU,1541746377,81,62.16,117.65,21.55,4.09
515,Camrose,75,CA,1541743200,78,53.01,-112.84,10.4,16.11
516,Tuensang,44,IN,1541746377,67,26.24,94.81,69.7,1.68
517,Hailar,76,CN,1541746377,68,49.2,119.7,28.62,7.9
518,Bilma,0,NE,1541746378,35,18.69,12.92,55.26,4.54
519,Merauke,32,ID,1541746378,82,-8.49,140.4,86.76,15.88
520,Udon Thani,75,TH,1541745000,55,17.4,102.79,86.0,5.82
521,Nurobod,0,UZ,1541743200,40,40.91,69.8,51.8,4.7
522,Laguna,0,MX,1541746379,80,27.52,-110.01,59.58,2.24
523,Tual,8,ID,1541746380,100,-5.67,132.75,85.95,8.61
524,Port Blair,92,IN,1541746380,100,11.67,92.75,80.95,19.42
525,Vila Franca do Campo,75,PT,1541745000,82,37.72,-25.43,66.2,20.8
526,Jepara,68,ID,1541746381,99,-5.21,105.74,81.63,4.88
527,Belle Fourche,90,US,1541744100,72,44.67,-103.85,10.4,16.11
528,Dingle,68,PH,1541746383,62,11.0,122.67,87.25,14.65
529,Ballina,75,IE,1541745000,93,54.11,-9.15,42.8,19.46
530,Aripuana,68,BR,1541746383,98,-9.17,-60.63,75.1,2.19
531,Kiunga,24,PG,1541746386,77,-6.12,141.3,85.23,2.35
532,Guerrero Negro,8,MX,1541746387,100,27.97,-114.04,55.93,6.04
533,Puerto Escondido,8,MX,1541746387,100,15.86,-97.07,84.28,7.56
534,Comodoro Rivadavia,0,AR,1541743200,81,-45.87,-67.48,46.4,6.89
535,Coruripe,80,BR,1541746388,100,-10.12,-36.18,77.67,13.04
536,Lavrentiya,92,RU,1541746388,100,65.58,-170.99,35.19,35.01
537,Yakima,1,US,1541742780,80,46.6,-120.51,26.06,5.82
538,Atar,36,MR,1541746391,75,20.52,-13.05,59.22,2.8
539,Price,1,US,1541742780,46,39.6,-110.81,28.04,5.82
540,Payakumbuh,56,ID,1541746392,72,-0.23,100.63,83.52,2.53
541,Drayton Valley,12,CA,1541746392,70,53.22,-114.98,7.56,5.21
542,Maragogi,92,BR,1541746331,95,-9.01,-35.22,75.82,8.23
543,Richards Bay,0,ZA,1541746392,73,-28.77,32.06,67.86,2.98
544,Koplik,0,AL,1541745000,93,42.21,19.44,48.2,3.36
545,Cockburn Town,36,TC,1541746393,100,21.46,-71.14,80.37,10.58
546,Nagod,0,IN,1541746393,44,24.57,80.59,80.5,2.08
547,Mount Hagen,24,PG,1541746393,66,-5.86,144.23,67.41,2.75
548,Rodino,20,RU,1541746395,89,52.5,80.2,14.35,15.43
549,Mecca,8,SA,1541746112,45,21.43,39.83,80.01,4.54
550,Sale,20,GB,1541744400,81,53.42,-2.32,48.2,8.05
551,Pustoshka,92,RU,1541746396,98,56.34,29.37,37.44,5.82
552,Howard Springs,75,AU,1541745000,83,-12.5,131.05,78.8,9.17
553,Mackay,1,CA,1541743200,92,53.65,-115.58,15.8,1.34
